<?xml version="1.0"?>
<gpx xmlns="http://www.topografix.com/GPX/1/1/" version="1.0" xmlns:xsi="http://www.w3.org/2001/XMLSchema-instance" xsi:schemaLocation="http://www.topografix.com/GPX/1/1/ http://www.topografix.com/GPX/1/1//gpx.xsd" creator="FlyChart, Version 4.57, Sep. 1st 2014 - http://www.flytec.ch">
  <wpt lat="32.671458" lon="35.450689">  <ele>105</ele>
    <name>KFAR_KISCH</name>
  </wpt>
  <wpt lat="32.095943" lon="35.461833">  <ele>350</ele>
    <name>SARTABA_PE</name>
  </wpt>
  <wpt lat="32.369411" lon="35.509986">  <ele>-170</ele>
    <name>MEHOLA_JU</name>
  </wpt>
  <wpt lat="33.026747" lon="35.624635">  <ele>75</ele>
    <name>GADOT_LZ</name>
  </wpt>
  <wpt lat="32.925314" lon="35.638922">  <ele>-65</ele>
    <name>HAD_NESS_LZ</name>
  </wpt>
  <wpt lat="32.883799" lon="35.644960">  <ele>-205</ele>
    <name>MAALE_GAMLA_JU</name>
  </wpt>
  <wpt lat="32.835519" lon="35.302524">  <ele>555</ele>
    <name>HASHABI_TO</name>
  </wpt>
  <wpt lat="32.888616" lon="35.342927">  <ele>195</ele>
    <name>KAMON_LZ</name>
  </wpt>
  <wpt lat="32.927773" lon="35.250260">  <ele>510</ele>
    <name>TUVAL_PE</name>
  </wpt>
  <wpt lat="32.927897" lon="35.328678">  <ele>220</ele>
    <name>KARMIEL_EAST_LZ</name>
  </wpt>
  <wpt lat="32.908186" lon="35.363259">  <ele>565</ele>
    <name>KAMON_TO</name>
  </wpt>
  <wpt lat="32.935188" lon="35.359429">  <ele>315</ele>
    <name>HAARI_LZ</name>
  </wpt>
  <wpt lat="32.5928666666667" lon="35.18405">  <ele>120</ele>
    <name>HAYOGEV_JU</name>
  </wpt>
  <wpt lat="32.5805166666667" lon="34.9462333333333">  <ele>110</ele>
    <name>ZICHRON_TO</name>
  </wpt>
  <wpt lat="32.6578166666667" lon="35.2925166666667">  <ele>90</ele>
    <name>ADASHIM_JU</name>
  </wpt>
  <wpt lat="32.62305" lon="35.2894666666667">  <ele>65</ele>
    <name>AFULA_NORTH_JU</name>
  </wpt>
  <wpt lat="32.6029833333333" lon="35.27935">  <ele>55</ele>
    <name>AFULA_WEST</name>
  </wpt>
  <wpt lat="32.7887666666667" lon="35.6963">  <ele>335</ele>
    <name>NEOT_GOLAN</name>
  </wpt>
  <wpt lat="32.7257833333333" lon="35.09705">  <ele>15</ele>
    <name>AMAKIM_JU</name>
  </wpt>
  <wpt lat="32.7239" lon="35.6501833333333">  <ele>350</ele>
    <name>MEVO_HAMA_TO</name>
  </wpt>
  <wpt lat="32.36855" lon="34.98835">  <ele>30</ele>
    <name>OMETZ</name>
  </wpt>
  <wpt lat="32.8019833333333" lon="35.4821166666667">  <ele>40</ele>
    <name>ARBEL_JU</name>
  </wpt>
  <wpt lat="32.7113" lon="34.9517833333333">  <ele>10</ele>
    <name>ATLIT_JU</name>
  </wpt>
  <wpt lat="32.5617166666667" lon="35.3040333333333">  <ele>65</ele>
    <name>AVITAL_JU</name>
  </wpt>
  <wpt lat="32.6590666666667" lon="35.5749333333333">  <ele>-205</ele>
    <name>ASHDOT_YAAKOV</name>
  </wpt>
  <wpt lat="32.5339666666667" lon="34.9288333333333">  <ele>10</ele>
    <name>BEIT_HANANIA_JU</name>
  </wpt>
  <wpt lat="32.72125" lon="35.4101666666667">  <ele>150</ele>
    <name>BEIT_KESHET_JU</name>
  </wpt>
  <wpt lat="32.6298333333333" lon="35.2946">  <ele>90</ele>
    <name>BALFOURIA</name>
  </wpt>
  <wpt lat="32.7345833333333" lon="35.6339333333333">  <ele>-190</ele>
    <name>MEVO_HAMA_LZ</name>
  </wpt>
  <wpt lat="32.7141" lon="34.9705833333333">  <ele>40</ele>
    <name>BEIT_OREN_JU</name>
  </wpt>
  <wpt lat="32.7616" lon="35.34605">  <ele>180</ele>
    <name>KAFR_KANNA_JU</name>
  </wpt>
  <wpt lat="32.4810166666667" lon="35.0253333333333">  <ele>55</ele>
    <name>BARKAI_JU</name>
  </wpt>
  <wpt lat="32.51245" lon="35.4953">  <ele>-120</ele>
    <name>BEIT_SHEAN_NORTH</name>
  </wpt>
  <wpt lat="32.5583666666667" lon="35.5503833333333">  <ele>-230</ele>
    <name>BEIT_YOSEF</name>
  </wpt>
  <wpt lat="32.6878" lon="35.57665">  <ele>-200</ele>
    <name>BEIT_ZERA</name>
  </wpt>
  <wpt lat="32.7019833333333" lon="35.6027166666667">  <ele>-195</ele>
    <name>MAAGAN_JU</name>
  </wpt>
  <wpt lat="32.5900666666667" lon="35.0741166666667">  <ele>210</ele>
    <name>DALIA</name>
  </wpt>
  <wpt lat="32.6105166666667" lon="34.9275666666667">  <ele>10</ele>
    <name>DOR_BRIGE</name>
  </wpt>
  <wpt lat="32.6443166666667" lon="35.3535166666667">  <ele>165</ele>
    <name>DOVRAT_JU</name>
  </wpt>
  <wpt lat="32.7012666666667" lon="35.3516833333333">  <ele>430</ele>
    <name>DVORA_PE</name>
  </wpt>
  <wpt lat="32.6541833333333" lon="35.4241">  <ele>80</ele>
    <name>EIN_DOR</name>
  </wpt>
  <wpt lat="32.8293833333333" lon="35.4093">  <ele>200</ele>
    <name>EILABUN_JU</name>
  </wpt>
  <wpt lat="32.6006" lon="35.0970666666667">  <ele>260</ele>
    <name>EIN_HASHOFET</name>
  </wpt>
  <wpt lat="32.6822333333333" lon="35.32305">  <ele>160</ele>
    <name>IKSAL</name>
  </wpt>
  <wpt lat="32.7809166666667" lon="35.4341666666667">  <ele>240</ele>
    <name>GIVAT_AVNI</name>
  </wpt>
  <wpt lat="32.6363" lon="35.4444333333333">  <ele>150</ele>
    <name>GAZIT</name>
  </wpt>
  <wpt lat="32.551" lon="35.3947333333333">  <ele>-45</ele>
    <name>GILBOA_LZ</name>
  </wpt>
  <wpt lat="32.5351333333333" lon="35.3758833333333">  <ele>290</ele>
    <name>GILBOA_TO</name>
  </wpt>
  <wpt lat="32.8488833333333" lon="35.5189833333333">  <ele>-200</ele>
    <name>GINOSAR_JU</name>
  </wpt>
  <wpt lat="32.7750166666667" lon="35.4089">  <ele>220</ele>
    <name>GOLANI_JU</name>
  </wpt>
  <wpt lat="32.4591" lon="34.9866">  <ele>50</ele>
    <name>PARDES_HANA_JU</name>
  </wpt>
  <wpt lat="32.76205" lon="35.6608666666667">  <ele>310</ele>
    <name>KFAR_HARUV</name>
  </wpt>
  <wpt lat="32.47215" lon="34.8998666666667">  <ele>20</ele>
    <name>HADERA_JU</name>
  </wpt>
  <wpt lat="32.9543833333333" lon="35.3726333333333">  <ele>1015</ele>
    <name>HAARI_TO</name>
  </wpt>
  <wpt lat="32.7536833333333" lon="35.4097666666667">  <ele>210</ele>
    <name>ILANIYA_JU</name>
  </wpt>
  <wpt lat="32.5578833333333" lon="35.3176166666667">  <ele>90</ele>
    <name>YIZREEL_JU</name>
  </wpt>
  <wpt lat="32.6902166666667" lon="35.4191833333333">  <ele>130</ele>
    <name>KFAR_TAVOR</name>
  </wpt>
  <wpt lat="32.6815666666667" lon="35.2998333333333">  <ele>375</ele>
    <name>KFITZA_PE</name>
  </wpt>
  <wpt lat="32.7971333333333" lon="35.49625">  <ele>15</ele>
    <name>KFAR_HITTIM</name>
  </wpt>
  <wpt lat="32.6396333333333" lon="34.9585666666667">  <ele>25</ele>
    <name>KEREM_MAHARAL_JU</name>
  </wpt>
  <wpt lat="32.5951333333333" lon="35.5213">  <ele>310</ele>
    <name>KOCHAV_HAYARDE_PE</name>
  </wpt>
  <wpt lat="32.71385" lon="35.5468166666667">  <ele>10</ele>
    <name>ALUMOT_JU</name>
  </wpt>
  <wpt lat="32.5729333333333" lon="35.1925833333333">  <ele>100</ele>
    <name>MEGIDDO_JU</name>
  </wpt>
  <wpt lat="32.7055" lon="35.5646166666667">  <ele>-200</ele>
    <name>MERKAVOT_HAYARDEN</name>
  </wpt>
  <wpt lat="32.7476833333333" lon="34.9645666666667">  <ele>15</ele>
    <name>HAHOTRIM_JU</name>
  </wpt>
  <wpt lat="32.5862166666667" lon="35.4357">  <ele>65</ele>
    <name>MOLEDET</name>
  </wpt>
  <wpt lat="32.6171833333333" lon="35.3499333333333">  <ele>495</ele>
    <name>GIVAT_HAMORE_PE</name>
  </wpt>
  <wpt lat="32.7583166666667" lon="35.2337333333333">  <ele>145</ele>
    <name>HAMOVIL_JU</name>
  </wpt>
  <wpt lat="31.7711166666667" lon="34.9619666666667">  <ele>330</ele>
    <name>TSORA_TO</name>
  </wpt>
  <wpt lat="32.7791333333333" lon="35.2446333333333">  <ele>160</ele>
    <name>HANATON_JU</name>
  </wpt>
  <wpt lat="32.6895666666667" lon="35.0912666666667">  <ele>420</ele>
    <name>MUHRAKA_TO</name>
  </wpt>
  <wpt lat="32.827" lon="35.6499666666667">  <ele>-200</ele>
    <name>KURSI_JU</name>
  </wpt>
  <wpt lat="32.7996833333333" lon="35.69035">  <ele>350</ele>
    <name>BNEI_YEHUDA</name>
  </wpt>
  <wpt lat="32.5691666666667" lon="34.9337666666667">  <ele>10</ele>
    <name>MUL_ZICHRON</name>
  </wpt>
  <wpt lat="31.882" lon="34.8870833333333">  <ele>105</ele>
    <name>NAAN_TO</name>
  </wpt>
  <wpt lat="32.6184" lon="35.39995">  <ele>125</ele>
    <name>NAURA_JU</name>
  </wpt>
  <wpt lat="32.9131333333333" lon="35.5452166666667">  <ele>190</ele>
    <name>AMIAD_JU</name>
  </wpt>
  <wpt lat="32.7003833333333" lon="35.2082333333333">  <ele>105</ele>
    <name>NAHALAL_JU</name>
  </wpt>
  <wpt lat="32.5739" lon="35.24905">  <ele>60</ele>
    <name>NIR_YAFEH_JU</name>
  </wpt>
  <wpt lat="32.7863166666667" lon="35.4955666666667">  <ele>145</ele>
    <name>PORIA_JU</name>
  </wpt>
  <wpt lat="32.5919333333333" lon="35.4146166666667">  <ele>65</ele>
    <name>RAMAT_TZVI</name>
  </wpt>
  <wpt lat="32.59855" lon="35.0566833333333">  <ele>185</ele>
    <name>RAMOT_MENASHE</name>
  </wpt>
  <wpt lat="32.1773666666667" lon="34.8882666666667">  <ele>65</ele>
    <name>RAANANA_JU</name>
  </wpt>
  <wpt lat="32.4855333333333" lon="35.4790833333333">  <ele>-115</ele>
    <name>RESHAFIM_JU</name>
  </wpt>
  <wpt lat="32.7505" lon="35.4184833333333">  <ele>190</ele>
    <name>SDE_ILAN</name>
  </wpt>
  <wpt lat="32.6991666666667" lon="35.4309">  <ele>170</ele>
    <name>SHADMOT_DVORA</name>
  </wpt>
  <wpt lat="32.5206666666667" lon="35.4838166666667">  <ele>-105</ele>
    <name>SDE_NAHUM</name>
  </wpt>
  <wpt lat="32.3231833333333" lon="34.9042666666667">  <ele>40</ele>
    <name>HASHARON_JU</name>
  </wpt>
  <wpt lat="32.5447666666667" lon="35.4340666666667">  <ele>-80</ele>
    <name>BEIT_HASHITA</name>
  </wpt>
  <wpt lat="32.6063333333333" lon="35.3306833333333">  <ele>110</ele>
    <name>SULAM</name>
  </wpt>
  <wpt lat="32.44155" lon="35.0035833333333">  <ele>30</ele>
    <name>EIN_SHEMER_TO</name>
  </wpt>
  <wpt lat="32.8071" lon="35.1468666666667">  <ele>90</ele>
    <name>SOMEH_JUNC</name>
  </wpt>
  <wpt lat="32.72445" lon="35.4775833333333">  <ele>255</ele>
    <name>SHARONA_TO</name>
  </wpt>
  <wpt lat="32.6345166666667" lon="35.397">  <ele>190</ele>
    <name>TAMRA_JU</name>
  </wpt>
  <wpt lat="32.6797333333333" lon="35.3690333333333">  <ele>120</ele>
    <name>TAVOR_LZ</name>
  </wpt>
  <wpt lat="32.59085" lon="35.23955">  <ele>55</ele>
    <name>TAANAHIM_JU</name>
  </wpt>
  <wpt lat="32.688509" lon="35.382022">  <ele>465</ele>
    <name>TAVOR_TO</name>
  </wpt>
  <wpt lat="32.7536833333333" lon="35.0719166666667">  <ele>10</ele>
    <name>YAGUR_JU</name>
  </wpt>
  <wpt lat="32.7036833333333" lon="35.5061666666667">  <ele>-15</ele>
    <name>YAVNIEL</name>
  </wpt>
  <wpt lat="32.700261" lon="35.492157">  <ele>300</ele>
    <name>YAVNIEL_TO</name>
  </wpt>
  <wpt lat="32.7992166666667" lon="35.6757833333333">  <ele>305</ele>
    <name>GIVAT_YOAV</name>
  </wpt>
</gpx>
